[{"ags":"G7003","amt":"","ascii":"","einwohner":"4450","flaeche":"19.6","invalid":"","kz":"01","lat":"47.06895262060281","level":"6","loc_id":"32383","lon":"9.499397277832031","name":"Balzers","of":"151364","plz":"9496","typ":"Gemeinde","vorwahl":""},{"ags":"","amt":"","ascii":"","einwohner":"4141","flaeche":"10.3","invalid":"","kz":"","lat":"47.21298032252528 ","level":"7","loc_id":"32384","lon":"9.521799087524414 ","name":"Eschen","of":"151372","plz":"9492","typ":"Ort","vorwahl":""},{"ags":"G7009","amt":"","ascii":"","einwohner":"1463","flaeche":"6.1","invalid":"","kz":"03","lat":"47.21642006708719","level":"6","loc_id":"32385","lon":"9.507637023925781","name":"Gamprin","of":"151362","plz":"9487","typ":"Gemeinde","vorwahl":""},{"ags":"","amt":"","ascii":"","einwohner":"3718","flaeche":"7.5","invalid":"","kz":"","lat":"47.21968470299384","level":"7","loc_id":"32386","lon":"9.540596008300781","name":"Mauren","of":"151374","plz":"9493","typ":"Ort","vorwahl":""},{"ags":"","amt":"","ascii":"","einwohner":"","flaeche":"","invalid":"","kz":"","lat":"47.19711963167912","level":"7","loc_id":"32387","lon":"9.5416259765625","name":"Nendeln","of":"151372","plz":"9485","typ":"Ort","vorwahl":""},{"ags":"G7010","amt":"","ascii":"","einwohner":"","flaeche":"","invalid":"1","kz":"","lat":"47.23333333333","level":"6","loc_id":"32388","lon":"9.529996","name":"Ruggell","of":"35165","plz":"9491","typ":"","vorwahl":""},{"ags":"G7005","amt":"","ascii":"","einwohner":"5747","flaeche":"26.8","invalid":"","kz":"07","lat":"47.166959583140454","level":"6","loc_id":"32389","lon":"9.509868621826171","name":"Schaan","of":"151364","plz":"9494","typ":"Gemeinde","vorwahl":""},{"ags":"","amt":"","ascii":"","einwohner":"","flaeche":"","invalid":"","kz":"","lat":"47.21134782330764","level":"7","loc_id":"35160","lon":"9.562997817993164","name":"Schaanwald","of":"151374","plz":"9486","typ":"Ort","vorwahl":""},{"ags":"","amt":"","ascii":"","einwohner":"1032","flaeche":"3.5","invalid":"","kz":"","lat":"47.231575605425384","level":"7","loc_id":"35161","lon":"9.545917510986328","name":"Schellenberg","of":"151368","plz":"9488","typ":"Ort","vorwahl":""},{"ags":"G7002","amt":"","ascii":"","einwohner":"4705","flaeche":"26.353","invalid":"","kz":"09","lat":"47.11336431327773","level":"6","loc_id":"35162","lon":"9.524288177490234","name":"Triesen","of":"151364","plz":"9495","typ":"Gemeinde","vorwahl":""},{"ags":"G7004","amt":"","ascii":"","einwohner":"2566","flaeche":"29.8","invalid":"","kz":"10","lat":"47.118333","level":"6","loc_id":"35163","lon":"9.54167","name":"Triesenberg","of":"151364","plz":"9497","typ":"Gemeinde","vorwahl":""},{"ags":"G7001","amt":"","ascii":"","einwohner":"5070","flaeche":"17.3","invalid":"0","kz":"11","lat":"47.14314613309231","level":"6","loc_id":"35164","lon":"9.519309997558593","name":"Vaduz","of":"151364","plz":"9490","typ":"Gemeinde","vorwahl":""},{"ags":"","amt":"","ascii":"LIECHTENSTEIN","einwohner":"","flaeche":"","invalid":"0","kz":"FL","lat":"","level":"2","loc_id":"35165","lon":"","name":"Fürstentum Liechtenstein","of":"104","plz":"","typ":"","vorwahl":""},{"ags":"G7006","amt":"","ascii":"PLANKEN","einwohner":"387","flaeche":"","invalid":"0","kz":"05","lat":"47.185629331931395","level":"6","loc_id":"150580","lon":"9.545445442199707","name":"Planken","of":"151364","plz":"9498","typ":"Gemeinde","vorwahl":""},{"ags":"","amt":"","ascii":"MAELS","einwohner":"","flaeche":"","invalid":"0","kz":"","lat":"47.062287672433186","level":"7","loc_id":"151347","lon":"9.492874145507812","name":"Mäls","of":"32383","plz":"9496","typ":"Ort","vorwahl":""},{"ags":"","amt":"","ascii":"BENDERN","einwohner":"","flaeche":"","invalid":"0","kz":"","lat":"47.220675713408426 ","level":"7","loc_id":"151353","lon":"9.509010314941406","name":"Bendern ","of":"32385","plz":"9487","typ":"Ort","vorwahl":""},{"ags":"","amt":"","ascii":"RUGGELL","einwohner":"","flaeche":"","invalid":"0","kz":"","lat":"47.24130783905019","level":"7","loc_id":"151357","lon":"9.526691436767578","name":"Ruggell","of":"32388","plz":"9491","typ":"","vorwahl":""},{"ags":"","amt":"","ascii":"MALBUN","einwohner":"","flaeche":"","invalid":"0","kz":"","lat":"47.101972739943534 ","level":"7","loc_id":"151359","lon":"9.60780143737793","name":"Malbun","of":"35163","plz":"9497","typ":"Ort","vorwahl":""},{"ags":"","amt":"","ascii":"UNTERLAND","einwohner":"","flaeche":"","invalid":"0","kz":"","lat":"","level":"5","loc_id":"151362","lon":"","name":"Unterland","of":"35165","plz":"","typ":"Wahlkreis","vorwahl":""},{"ags":"","amt":"","ascii":"OBERLAND","einwohner":"","flaeche":"","invalid":"0","kz":"","lat":"","level":"5","loc_id":"151364","lon":"","name":"Oberland","of":"35165","plz":"","typ":"Wahlkreis","vorwahl":""},{"ags":"G7011","amt":"","ascii":"SCHELLENBERG","einwohner":"1032","flaeche":"","invalid":"0","kz":"08","lat":"47.231109345775934","level":"6","loc_id":"151368","lon":"9.546175003051757","name":"Schellenberg","of":"151362","plz":"9488","typ":"Gemeinde","vorwahl":""},{"ags":"","amt":"","ascii":"GAMPRIN","einwohner":"1463","flaeche":"","invalid":"0","kz":"","lat":"47.220675713408426","level":"7","loc_id":"151370","lon":"9.509439468383789","name":"Gamprin","of":"32385","plz":"9487","typ":"Ort","vorwahl":""},{"ags":"G7007","amt":"","ascii":"ESCHEN","einwohner":"4141","flaeche":"","invalid":"0","kz":"02","lat":"47.21298032252528","level":"6","loc_id":"151372","lon":"9.521799087524414","name":"Eschen","of":"151362","plz":"9492","typ":"Gemeinde","vorwahl":""},{"ags":"G7008","amt":"","ascii":"MAUREN","einwohner":"3718","flaeche":"","invalid":"0","kz":"04","lat":"47.21968470299384","level":"6","loc_id":"151374","lon":"9.540596008300781","name":"Mauren","of":"151362","plz":"9493","typ":"Gemeinde","vorwahl":""},{"ags":"","amt":"","ascii":"MASESCHA","einwohner":"","flaeche":"","invalid":"0","kz":"","lat":"","level":"7","loc_id":"151377","lon":"","name":"Masescha","of":"35163","plz":"","typ":"Ort","vorwahl":""},{"ags":"","amt":"","ascii":"SILUM","einwohner":"","flaeche":"","invalid":"0","kz":"","lat":"","level":"7","loc_id":"151379","lon":"","name":"Silum","of":"35163","plz":"","typ":"Gemeinde","vorwahl":""},{"ags":"","amt":"","ascii":"GAFLEI","einwohner":"","flaeche":"","invalid":"0","kz":"","lat":"","level":"7","loc_id":"151381","lon":"","name":"Gaflei","of":"35163","plz":"","typ":"Ort","vorwahl":""},{"ags":"","amt":"","ascii":"STEG","einwohner":"","flaeche":"","invalid":"0","kz":"","lat":"","level":"7","loc_id":"151383","lon":"","name":"Steg","of":"35163","plz":"","typ":"Ort","vorwahl":""},{"ags":"","amt":"","ascii":"TRIESENBERG","einwohner":"","flaeche":"","invalid":"0","kz":"","lat":"","level":"7","loc_id":"151385","lon":"","name":"Triesenberg","of":"35163","plz":"","typ":"Ort","vorwahl":""},{"ags":"","amt":"","ascii":"BALZERS","einwohner":"","flaeche":"","invalid":"0","kz":"","lat":"47.06895262060281","level":"7","loc_id":"151387","lon":"9.499397277832031","name":"Balzers","of":"32383","plz":"","typ":"Ort","vorwahl":""},{"ags":"G7010","amt":"","ascii":"RUGGELL","einwohner":"1966","flaeche":"","invalid":"0","kz":"06","lat":"47.24333","level":"6","loc_id":"153404","lon":"9.529996","name":"Ruggell","of":"151362","plz":"9491","typ":"Gemeinde","vorwahl":""},{"ags":"","amt":"","ascii":"RUGGELL","einwohner":"","flaeche":"","invalid":"1","kz":"","lat":"","level":"7","loc_id":"153406","lon":"","name":"Ruggell","of":"153404","plz":"","typ":"Ort","vorwahl":""},{"ags":"","amt":"","ascii":"RUGGELL","einwohner":"","flaeche":"","invalid":"0","kz":"","lat":"47.24333","level":"7","loc_id":"153408","lon":"9.529996","name":"Ruggell","of":"153404","plz":"","typ":"Ort","vorwahl":""}]